code,name,latitude,longitude,,
7015,LaSalle / 4e avenue,45.43074022,-73.59191083,,
6714,LaSalle / Senecal,45.43443353,-73.586694,,
6712,LaSalle / Crawford,45.4379138,-73.58274043,,
6715,Natatorium (LaSalle / Rolland),45.44440817,-73.5755682,,
7048,Metro Angrignon,45.44653424,-73.60354088,,
7056,Godin / Bannantyne,45.4475537,-73.57726336,,
7051,Jogues / Allard,45.44990081,-73.60025119,,
6706,Beatty / de Verdun,45.45072998,-73.57257485,,
6725,Metro Monk (Allard / Beaulieu),45.45085122,-73.5940272,,
7059,Argyle / Bannantyne,45.45324567,-73.57681476,,
6309,5e avenue / de Verdun,45.456049,-73.571877,,
6744,Hamilton / Jolicoeur,45.456355,-73.597557,,
6369,West Broadway / Sherbrooke,45.45635829,-73.64013027,,
6705,5e avenue / Bannantyne,45.456365,-73.57614,,
6707,Metro Jolicoeur (Drake / de Sève),45.456498,-73.58214363,,
6754,Eadie / Dubois,45.45759682,-73.5905286,,
7057,2e avenue / Wellington,45.45789353,-73.56752824,,
7010,Belmore / Sherbrooke,45.45923306,-73.63740515,,
6426,Metro Verdun (Willibrord / de Verdun),45.45948769,-73.57209206,,
6428,Berlioz / de l'Île des Soeurs,45.45998578,-73.54395568,,
6719,Park Row O / Sherbrooke,45.46072936,-73.63407254,,
7058,Gordon / Wellington,45.46107799,-73.567307,,
6709,Le Caron / Marc-Sauvalle ,45.461685,-73.584039,,
6742,Briand / le Caron,45.462362,-73.59665,,
6425,Ross / de l'Église,45.462742,-73.565845,,
7060,de l'Église / de Verdun,45.46300109,-73.57156895,,
6379,de l'Église / Bannantyne,45.46325354,-73.57587934,,
7013,Benny Crescent / Benny,45.46431547,-73.62556994,,
6718,Grand Boulevard / Sherbrooke,45.466569,-73.623295,,
6115,Benny / de Monkland,45.46691425,-73.63170415,,
6429,Place du Commerce,45.46714,-73.54259,,
6341,Regina / de Verdun,45.467369,-73.570769,,
7054,Cote St-Paul / St-Ambroise,45.46766565,-73.59391784,,
6363,de Clifton / Sherbrooke,45.46904609,-73.61857474,,
6415,Wilson / Sherbrooke,45.4703,-73.6162,,
6313,Palm / St-Remi,45.470303,-73.589848,,
6427,Metro Lasalle (de Rushbrooke / Caisse),45.47069643,-73.56542241,,
6263,de Hampton / de Monkland,45.4711616,-73.62720609,,
6354,Marcil / Sherbrooke,45.471743,-73.613924,,
6724,Square Sir-Georges-Étienne-Cartier / Lea Roback,45.471926,-73.58247,,
6016,Jacques-Le Ber / de la Pointe Nord,45.472503,-73.539285,,
6402,Square Sir-Georges-Etienne-Cartier / Ste-Émilie,45.47266801,-73.58538978,,
6080,Metro Vendôme,45.47413823,-73.60359728,,
6418,de Vendôme / de Maisonneuve,45.4744193,-73.60405862,,
6339,d'Oxford / de Monkland,45.47514154,-73.62350464,,
6349,Ryde / Charlevoix,45.4757434,-73.5646007,,
6356,de Monkland / Girouard,45.47710675,-73.621438,,
6375,Metro Place St-Henri (St-Ferdinand / St-Jacques),45.477249,-73.587238,,
6416,Notre-Dame-de-Grâce / Decarie,45.47735334,-73.61537218,,
6434,Victoria / de Maisonneuve,45.47742856,-73.60016942,,
6732,Fortune / Wellington,45.477923,-73.559038,,
10002,Metro Charlevoix (Centre / Charlevoix),45.47822787,-73.56965125,,
7011,Girouard / de Terrebonne,45.47843159,-73.62489939,,
6101,Metro Villa-Maria (Decarie / de Monkland),45.479483,-73.61979,,
6377,Grand Trunk / Hibernia,45.47968,-73.56385,,
7070,Bourgeoys / Favard,45.47993042,-73.55592102,,
6406,Marche Atwater,45.48020823,-73.57759863,,
6414,Laporte / St-Antoine,45.48050798,-73.58660951,,
7053,Ropery / Augustin-Cantin,45.48091407,-73.56846035,,
7055,Greene / Workman,45.48118441,-73.57934877,,
6350,Island / Centre,45.48149081,-73.56475353,,
6435,Victoria Hall,45.4816,-73.6,,
6405,Duvernay / Charlevoix,45.48203995,-73.57486278,,
6029,Bel Air / St-Antoine,45.482779,-73.58452544,,
6433,Hillside / Ste-Catherine,45.48282603,-73.59084338,,
7052,Shearer / Centre,45.48300562,-73.56218666,,
6407,Charlevoix / Lionel-Groulx,45.48392802,-73.57731164,,
6921,Augustin-Cantin / Shearer,45.48401829,-73.5634366,,
6420,Trans Island / Queen-Mary,45.484489,-73.628834,,
6727,de Montmorency / Richardson,45.48489566,-73.56011868,,
6403,Georges-Vanier / Notre-Dame,45.48504798,-73.57196331,,
6404,Quesnel / Vinet,45.485889,-73.577514,,
6409,Lionel-Groulx / George-Vanier,45.48621939,-73.57374698,,
6436,Côte St-Antoine / Clarke,45.4864521,-73.59523416,,
6741,Notre-Dame / Chatham,45.48691857,-73.56942862,,
6432,de Maisonneuve / Greene,45.48697062,-73.58929306,,
7068,Basin / Richmond,45.48760116,-73.56518537,,
6401,des Seigneurs / Workman,45.48799111,-73.56963247,,
6194,Tupper / Atwater,45.48887734,-73.58353704,,
6408,Metro Georges-Vanier (St-Antoine / Canning),45.4891,-73.57656,,
7050,Ottawa / William,45.48954486,-73.56413931,,
6084,Lambert-Closse / Tupper,45.489609,-73.582445,,
6088,Guy / Notre-Dame,45.489951,-73.567091,,
7049,Ottawa / St-Thomas,45.4908736,-73.56238917,,
6093,Atwater / Sherbrooke,45.49122585,-73.58763009,,
7076,Tupper / du Fort,45.49122962,-73.58078241,,
7081,Lincoln / Lambert Closse,45.4913838,-73.58601272,,
6419,Beaucourt / de la Côte-Ste-Catherine,45.491513,-73.633649,,
6091,Joseph-Manceau / Rene-Levesque,45.49168652,-73.57676715,,
6095,Chomedey / de Maisonneuve,45.49180028,-73.58400643,,
6097,Towers / Ste-Catherine,45.492504,-73.581088,,
6748,Young / Wellington,45.49282531,-73.55797827,,
6087,Notre-Dame / de la Montagne,45.49302901,-73.56481791,,
6102,Lincoln / du Fort,45.493034,-73.583836,,
6096,Lucien L'Allier / St-Jacques,45.49356916,-73.56857568,,
6086,Murray / William,45.49359556,-73.56196404,,
6107,St-Mathieu /Ste-Catherine,45.493718,-73.579186,,
7047,Muray / Notre-Dame,45.4939857,-73.56327944,,
6743,St-Marc / Sherbrooke,45.494514,-73.583368,,
6717,de Kent / Victoria,45.494805,-73.638772,,
6090,Metro Lucien-L'Allier (Lucien l'Allier / Argyle),45.49486,-73.57108,,
6085,Notre-Dame / Peel,45.4952,-73.56328,,
7071,St-Mathieu / Sherbrooke,45.4957891,-73.58259559,,
6159,Ann / William,45.49589439,-73.56009722,,
6092,Crescent / Rene-Levesque,45.49606,-73.57348,,
6423,Hôpital general juif (de la Côte Ste-Catherine / Legare),45.496302,-73.629822,,
6098,Bishop / Ste-Catherine,45.49642,-73.57616,,
6316,Gatineau / Swail,45.49645715,-73.62015456,,
6100,Mackay / de Maisonneuve,45.49659,-73.57851,,
6315,Metro Côte-des-Neiges (Lacombe / de la Côte-des-Neiges),45.49685054,-73.62331957,,
7062,Nazareth / William,45.49702385,-73.55922265,,
6049,Queen / Wellington,45.49759505,-73.55523705,,
6057,Peel / avenue des Canadiens de Montreal,45.497697,-73.568646,,
6048,Queen / Ottawa,45.4979738,-73.55614096,,
6052,de la Commune / King,45.4980302,-73.55266482,,
6099,Crescent / de Maisonneuve,45.49815109,-73.57760936,,
6062,Drummond / Ste-Catherine,45.4986393,-73.57422709,,
6050,de la Commune / McGill,45.4986731,-73.55256289,,
6046,Metro Bonaventure (de la Gauchetière / Mansfield),45.49871,-73.56671,,
6058,Cypress / Peel,45.49932551,-73.57176751,,
6063,Drummond / de Maisonneuve,45.49947,-73.57591,,
6065,de la Montagne / Sherbrooke,45.4996771,-73.57884854,,
6038,McGill / Place d'Youville,45.49975,-73.55566,,
6125,Ellendale / de la Côte-des-Neiges,45.499757,-73.629298,,
6928,Jean-Brillant / McKenna,45.500035,-73.618105,,
7079,Gauvin / Notre-Dame,45.50004273,-73.56041238,,
6060,Mansfield / Rene-Levesque,45.50015,-73.56928,,
6005,Metcalfe / du Square Dorchester,45.50023355,-73.57112646,,
6064,Metro Peel (de Maisonneuve / Stanley),45.50038,-73.57507,,
6042,de la Gauchetière / Robert-Bourassa,45.50060578,-73.56544822,,
6041,St-Jacques / Gauvin,45.500674,-73.561082,,
6059,Metcalfe / Ste-Catherine,45.50068474,-73.57215643,,
6039,McGill / des Recollets,45.500779,-73.558826,,
7012,McKenna / Édouard-Montpetit,45.50119451,-73.62062529,,
6312,de Kent / de la Côte-des-Neiges,45.501302,-73.633161,,
6066,Mansfield / Ste-Catherine,45.5014018,-73.5718136,,
6072,Metcalfe / de Maisonneuve,45.50171495,-73.57413054,,
6061,Ste-Catherine / McGill College,45.50176,-73.57128,,
6037,St-Nicolas / Place d'Youville,45.50197438,-73.55515659,,
6043,Square Victoria,45.50206,-73.56295,,
6027,de Maisonneuve / Mansfield,45.5022921,-73.57325211,,
6053,Belmont / du Beaver Hall,45.502326,-73.565138,,
6738,Union / Rene-Levesque,45.50235036,-73.5665828,,
6359,Parc Plage,45.50260227,-73.52750301,,
6040,St-Jacques / St-Pierre,45.5027865,-73.5591343,,
6068,Mansfield / Sherbrooke,45.50297,-73.57505,,
6424,du President-Kennedy / McGill College,45.503063,-73.573986,,
6413,Cathcart / Union,45.5034501,-73.56840402,,
6067,de Maisonneuve / Robert-Bourassa,45.503475,-73.572103,,
6708,Place Jean-Paul Riopelle (Viger / de Bleury),45.50372674,-73.56170386,,
6745,Cathcart / Place Phillips,45.50380539,-73.56817871,,
6083,Square Phillips,45.50409489,-73.56869638,,
6036,de la Commune / St-Sulpice,45.50424246,-73.55346948,,
7080,President-Kennedy / Robert Bourassa,45.50440747,-73.57254267,,
7014,Édouard-Montpetit (Universite de Montreal),45.50450093,-73.61765206,,
6031,St-Antoine / St-François-Xavier,45.50454229,-73.55916381,,
6035,Viger / Jeanne Mance,45.50477727,-73.56118888,,
7069,Union / President-Kennedy,45.50499345,-73.57170314,,
6073,de Maisonneuve / Aylmer,45.50501,-73.57069,,
6081,St-Alexandre / Ste-Catherine,45.50537693,-73.5676195,,
6310,de Darlington / de la Côte-Ste-Catherine,45.50540325,-73.62116575,,
6240,Hudson / de Kent,45.505973,-73.629593,,
6032,Metro Place-d'Armes (Viger / St-Urbain),45.50623,-73.55976,,
7067,City Councillors / du President-Kennedy,45.50625103,-73.57139066,,
6502,Casino de Montreal,45.5063732,-73.52457672,,
6749,St-Jacques / St-Laurent,45.50642115,-73.55646551,,
6070,Milton / University,45.5064484,-73.57634872,,
7066,St-Urbain / de la Gauchetière,45.50707813,-73.56139541,,
6078,Metro Place-des-Arts (de Maisonneuve / de Bleury),45.50708,-73.56917,,
6025,Notre-Dame / St-Gabriel,45.50714392,-73.55511904,,
6927,Édouard-Montpetit / Stirling,45.50723,-73.615085,,
6026,de la Commune / Place Jacques-Cartier,45.50761009,-73.55183601,,
6047,University / Prince-Arthur,45.5076617,-73.57885992,,
6203,Hutchison / Sherbrooke,45.50781,-73.57208,,
6034,St-Urbain / Rene-Levesque,45.5079,-73.563112,,
6204,Milton / Durocher,45.5081439,-73.57477158,,
6075,University / des Pins,45.508356,-73.580498,,
7033,Aylmer / Prince-Arthur,45.50856687,-73.57769787,,
6004,Hôtel-de-Ville (du Champs-de-Mars / Gosford),45.50918811,-73.55457991,,
6001,Hôtel-de-Ville 2 (du Champs-de-Mars / Gosford),45.50932814,-73.55434656,,
6180,Place de la paix (Pl. du marche / St-Dominique),45.5096853,-73.56231675,,
6205,Milton / du Parc,45.50971,-73.57354,,
6079,Hutchison/ Prince-Arthur,45.509864,-73.576105,,
6366,Wilderton  / Van Horne,45.510042,-73.624835,,
6202,Ste-Famille / Sherbrooke,45.51007155,-73.57075229,,
6306,du Mont-Royal / Vincent-d'Indy,45.510086,-73.611429,,
6206,Prince-Arthur / du Parc,45.51059,-73.57547,,
6012,Metro St-Laurent (de Maisonneuve / St-Laurent),45.51066,-73.56497,,
6208,Hutchison / des Pins,45.51069,-73.57805,,
6023,de la Commune / Berri,45.51086,-73.54983,,
6003,Clark / Evans,45.51113228,-73.56790714,,
7037,Prince-Arthur / Ste-Famille,45.51163821,-73.57463479,,
6007,de l'Hôtel-de-Ville / Ste-Catherine,45.51164009,-73.56218398,,
7001,Ste-Catherine / Ste-Élisabeth,45.51228321,-73.5618259,,
6209,Milton / Clark,45.51254135,-73.57067719,,
6218,Prince-Arthur / St-Urbain,45.51260056,-73.57374027,,
6008,Sanguinet / Ste-Catherine,45.512734,-73.5611406,,
6207,Ste-Famille / des Pins,45.51281295,-73.57701659,,
6411,Clark / Prince-Arthur,45.51330257,-73.57296109,,
6501,Metro Jean-Drapeau,45.513409,-73.53355408,,
6013,Sanguinet / de Maisonneuve,45.51354221,-73.56287062,,
6109,Quai de la navette fluviale,45.51374144,-73.53838205,,
7007,Gare Canora,45.51378024,-73.63246322,,
6901,Ste-Catherine / St-Denis,45.51383354,-73.5604459,,
6011,St-Andre / St-Antoine,45.51411453,-73.5526447,,
6305,Davaar / de la Côte-Ste-Catherine,45.514379,-73.610871,,
6014,St-Denis / de Maisonneuve,45.51439551,-73.56176555,,
7038,Clark / Guilbault,45.51440303,-73.57508205,,
6021,de l'Hôtel-de-Ville / Sherbrooke,45.51456467,-73.5684067,,
6020,Sanguinet / Ontario,45.514784,-73.565338,,
6215,St-Cuthbert / St-Urbain,45.514887,-73.57827589,,
6303,Dunlop / Van Horne,45.514905,-73.619682,,
6216,Parc Jeanne Mance (monument à sir George-Étienne Cartier),45.51496,-73.58503,,
6009,Ste-Catherine / Labelle,45.51505176,-73.55922148,,
6212,Duluth / de l'Esplanade,45.51517456,-73.58109489,,
6015,Berri / de Maisonneuve,45.515299,-73.561273,,
6211,Roy / St-Laurent,45.51561624,-73.57580826,,
6304,Rockland / Lajoie,45.515617,-73.614991,,
6302,Stuart / de la Côte-Ste-Catherine,45.51563409,-73.60671133,,
6729,St-Andre / Ste-Catherine,45.51642655,-73.55811238,,
6903,Napoleon /  St-Dominique,45.51674015,-73.57770324,,
6104,Wolfe / Rene-Levesque,45.5168175,-73.55418831,,
6213,Duluth / St-Laurent,45.51687641,-73.57946008,,
6223,du Mont-Royal / du Parc,45.517,-73.589,,
6219,de l'Hôtel-de-Ville / Roy,45.5173331,-73.57443631,,
6214,Square St-Louis,45.51735,-73.56906,,
6181,Clark / Rachel,45.5173538,-73.58212888,,
6222,Jeanne Mance / du Mont-Royal,45.5176432,-73.5889283,,
6019,Berri / Sherbrooke,45.51792135,-73.56716752,,
7074,St-Andre / Robin,45.51812809,-73.56185138,,
7036,Hutchison / Edouard Charles,45.5182634,-73.59577462,,
6224,Villeneuve / du Parc,45.51829,-73.59235,,
6301,Parc Outremont (Bloomfield / Elmwood),45.51830945,-73.60328615,,
7021,McEachran / Van Horne,45.5183413,-73.61664688,,
6248,St-Dominique / Rachel,45.518593,-73.581566,,
6018,St-Andre / Ontario,45.51889,-73.56353,,
6217,Vallières / St-Laurent,45.51897703,-73.58363156,,
6174,Roy / St-Denis,45.51908,-73.5727,,
6173,Berri / Cherrier,45.51908844,-73.56950909,,
6112,Montcalm / de Maisonneuve,45.519157,-73.55786,,
6220,Laval / Duluth,45.51921624,-73.57718021,,
6105,Plessis / Rene-Levesque,45.51937252,-73.55195805,,
6221,du Mont-Royal / Clark,45.51941,-73.58685,,
6241,Hutchison / Fairmount,45.51950519,-73.59852925,,
6171,Wolfe / Robin,45.51958083,-73.56011599,,
6307,Laval / Rachel,45.52017845,-73.57942387,,
6225,Villeneuve / St-Urbain,45.520188,-73.590559,,
6246,Metro Outremont (Wiseman / Van Horne),45.52027054,-73.61484915,,
6175,St-Andre / Cherrier,45.52054116,-73.5677509,,
6179,Duluth / St-Denis,45.52060423,-73.57598394,,
6243,Bloomfield / Bernard,45.52068774,-73.6084279,,
6117,Robin / de la Visitation,45.52088977,-73.55922148,,
6017,du Square Ahmerst / Wolfe,45.52106924,-73.5637571,,
6227,de l'Esplanade / Laurier,45.52111622,-73.59478354,,
6106,Papineau / Rene-Levesque,45.52114,-73.54926,,
6229,Coloniale / du Mont-Royal,45.52116132,-73.58561575,,
6196,Villeneuve / St-Laurent,45.52134173,-73.58941913,,
6182,de Bullion / du Mont-Royal,45.52148456,-73.58498007,,
6044,Roy / St-Christophe,45.52149208,-73.570472,,
6193,de l'Esplanade / Fairmount,45.521495,-73.596758,,
6504,La Ronde,45.52156537,-73.53533238,,
6902,Beaudry / Ontario,45.52162979,-73.56234759,,
6113,Alexandre-DeSève / de Maisonneuve,45.5219,-73.55534,,
6230,Waverly / Fairmount,45.52210956,-73.59620042,,
6178,Rivard / Rachel,45.5222776,-73.5775906,,
7022,Durocher / Bernard,45.5223176,-73.60693127,,
7034,Clark / Laurier,45.52258374,-73.59358858,,
6245,Bloomfield / Van Horne,45.5225858,-73.61265779,,
6231,Jeanne-Mance / St-Viateur,45.52282094,-73.60129595,,
6183,Henri-Julien / du Mont-Royal,45.52284724,-73.58361225,,
7031,Berri / Rachel,45.52287802,-73.57749537,,
6146,du Parc-La Fontaine / Roy,45.52290738,-73.56836379,,
7072,Beaudry / Sherbrooke,45.5230346,-73.56540598,,
6176,St-Andre / Duluth,45.523171,-73.573431,,
7073,Logan / de Champlain,45.52319433,-73.55584256,,
6123,Alexandre-de-Sève / la Fontaine,45.52327641,-73.55821833,,
6177,St-Hubert / Rachel,45.52340138,-73.57645601,,
6114,Metro Papineau (Cartier / Ste-Catherine),45.52353,-73.55199,,
6201,Villeneuve / de l'Hôtel-de-Ville,45.5235442,-73.58733237,,
6746,Metro Acadie (de l'Acadie / Beaumont),45.52357479,-73.62344295,,
6116,Plessis / Ontario,45.523584,-73.560941,,
5007,Metro Longueuil - Universite de Sherbrooke,45.523854,-73.519677,,
6195,de Bullion / St-Joseph,45.52403655,-73.59014332,,
6233,Bernard / Jeanne-Mance,45.52428648,-73.60497326,,
6280,Fairmount / St-Dominique,45.52450499,-73.5941425,,
6145,du Parc-La Fontaine / Duluth,45.52456565,-73.57207865,,
6926,Marie-Anne / St-Hubert,45.524634,-73.578755,,
6184,Metro Mont-Royal (Rivard / du Mont-Royal),45.524673,-73.58255,,
6147,Calixa-Lavallee / Sherbrooke,45.52479,-73.56545,,
6232,Hutchison / Van Horne,45.52502123,-73.61073732,,
6118,de Champlain / Ontario,45.52504754,-73.56003553,,
6199,Clark / St-Viateur,45.52516404,-73.59930575,,
6200,St-Dominique / Maguire,45.5251775,-73.59544605,,
6187,Resther / du Mont-Royal,45.52562819,-73.58177483,,
6094,de Gaspe / Fairmount,45.525669,-73.593016,,
6188,Mentana / Marie-Anne,45.52602657,-73.57785881,,
7077,Fullum / Jean Langlois,45.52612804,-73.54600221,,
6111,Parthenais / Ste-Catherine,45.52620038,-73.54926646,,
6752,Hutchison / Beaubien,45.5262464,-73.61374676,,
7032,Drolet / Laurier,45.52625188,-73.58975839,,
6235,St-Dominique / St-Viateur,45.52654332,-73.59823287,,
7024,Berri / Gilford,45.52656587,-73.585428,,
6728,Champagneur / Jean-Talon,45.52679805,-73.62421274,,
6334,d'Outremont / Ogilvy,45.52684538,-73.6266683,,
6143,Rachel / de Brebeuf,45.52689,-73.57264,,
6119,Dorion / Ontario,45.52697,-73.558021,,
6234,Bernard / Clark,45.52697,-73.60261,,
6190,Pontiac / Gilford,45.52700933,-73.58576596,,
7026,Maguire / Henri-Julien,45.5270411,-73.59347057,,
6148,Émile-Duploye / Sherbrooke,45.52729,-73.56463,,
6228,Waverly / Van Horne,45.527363,-73.607723,,
6169,Boyer / du Mont-Royal,45.52743213,-73.57991673,,
6136,Metro Laurier (Rivard / Laurier),45.52761627,-73.5891147,,
6281,Resther / St-Joseph,45.5277271,-73.58628362,,
7028,de Gaspe / St-Viateur,45.52774828,-73.59743893,,
6156,Marie-Anne / de la Roche,45.52775814,-73.57618511,,
6142,Calixa-Lavallee / Rachel,45.52779479,-73.57193917,,
6089,Henri-Julien / Carmel,45.52783941,-73.5948211,,
7025,St-Dominique / Bernard,45.52793332,-73.60122251,,
6108,Logan / Fullum,45.52844869,-73.551085,,
6157,de la Roche / du Mont-Royal,45.52875779,-73.57867956,,
6110,Poupart / Ste-Catherine,45.52903307,-73.54634821,,
6132,Larivière / de Lorimier,45.52913454,-73.55923355,,
6314,de Lanaudière / Marie-Anne,45.529219,-73.574777,,
7040,St-Urbain / Beaubien,45.52951034,-73.61067966,,
5003,Place Longueuil,45.52951222,-73.51769149,,
6186,St-Andre / Laurier,45.52955901,-73.58760189,,
6051,de Gaspe / Marmier,45.529686,-73.601728,,
6137,Gauthier / Papineau,45.5296926,-73.56740087,,
6198,Helène-Baillargeon / St-Denis,45.52974,-73.59527,,
6140,Marquette / Rachel,45.52980158,-73.57028961,,
6192,Berri / St-Gregoire,45.529802,-73.591766,,
6129,de Bordeaux / Sherbrooke,45.52997069,-73.56305301,,
6271,Casgrain / de Bellechasse,45.529993,-73.604214,,
6170,de Mentana / Laurier,45.530046,-73.58677,,
6503,Metro Parc  (Ogilvy / Hutchison),45.5303513,-73.62439245,,
6747,Waverly / St-Zotique,45.53050526,-73.61470833,,
6122,Logan / d'Iberville,45.53057,-73.54913,,
6158,Gilford / de Brebeuf,45.53081623,-73.58162597,,
6168,Marmier / St-Denis,45.53087132,-73.59834552,,
6155,Garnier / du Mont-Royal,45.53092,-73.57674,,
6274,de la Roche / St-Joseph,45.531164,-73.583695,,
6338,Ball / Querbes,45.53120329,-73.63214672,,
6906,Metro Rosemont (Rosemont / de St-Vallier),45.5313272,-73.5978882,,
6191,St-Zotique / Clark,45.531401,-73.612674,,
6929,St-Andre / St-Gregoire,45.53141185,-73.59174863,,
6138,Gauthier / De Lorimier,45.531818,-73.565317,,
6711,Alexandra / Waverly,45.531938,-73.617842,,
6124,Poupart / Ontario,45.53193889,-73.55343863,,
6237,de Lanaudière / Gilford,45.53198493,-73.58067513,,
6126,Rouen / Fullum,45.53217,-73.55859,,
6024,Messier / Hochelaga,45.53222706,-73.56061806,,
6141,de Bordeaux / Rachel,45.53227,-73.56828,,
6247,St-Dominique / St-Zotique,45.53228146,-73.61099146,,
6154,Marquette / du Mont-Royal,45.53229,-73.57544,,
7042,Alexandra / Jean Talon,45.53233065,-73.62018675,,
6139,des Érables / Gauthier,45.53240768,-73.5647763,,
6915,Alma / Beaubien,45.53243586,-73.606655,,
6165,de Brebeuf / Laurier,45.53248,-73.58507,,
6153,Cartier / Marie-Anne,45.532674,-73.571776,,
6164,Chambord / Laurier,45.53292954,-73.5841506,,
6160,Garnier / St-Joseph,45.53297746,-73.5812223,,
6252,Mozart / St-Laurent,45.53318,-73.61544,,
6913,Drolet / Beaubien,45.533348,-73.605834,,
6908,de Bellechasse / de St-Vallier,45.53334868,-73.60113569,,
7030,de Bordeaux / Marie-Anne,45.53340913,-73.57065707,,
6750,des Érables / Rachel,45.53349556,-73.56693149,,
6120,Ontario / du Havre,45.5336609,-73.5521968,,
5002,St-Charles / Montarville,45.53370329,-73.51528287,,
6131,Fullum / Sherbrooke ,45.533924,-73.562425,,
6166,de Brebeuf / St-Gregoire,45.5341,-73.58852,,
6907,Boyer / Rosemont,45.534136,-73.595478,,
6152,Chabot / du Mont-Royal,45.53418509,-73.57358873,,
6251,de Gaspe / Dante,45.53435795,-73.61223131,,
7078,Hochelaga / Chapleau,45.53445295,-73.55965197,,
6269,Bercy / Ontario,45.5345571,-73.55074972,,
7045,Casgrain / Mozart,45.53472726,-73.61479282,,
6311,Drolet / St-Zotique,45.53488214,-73.60941231,,
6121,Gascon / de Rouen,45.5351339,-73.55486423,,
6344,St-Dominique / Jean-Talon,45.535189,-73.617459,,
6128,Hogan / Ontario,45.53529548,-73.5511601,,
6163,Marquette / Laurier,45.53543,-73.5822,,
6912,de Chateaubriand / Beaubien,45.53550591,-73.6038816,,
6133,Terrasse Mercure / Fullum,45.53569003,-73.56592298,,
6161,Cartier / St-Joseph,45.53576,-73.57867,,
6385,de Bordeaux /Gilford,45.53611005,-73.57628703,,
6321,Gary Carter / St-Laurent,45.53615281,-73.62242103,,
6257,de St-Vallier / St-Zotique,45.53626118,-73.6075455,,
6151,Parthenais / Mont-Royal,45.53636889,-73.57141681,,
5005,St-Charles / St-Sylvestre,45.53637796,-73.51264223,,
6130,Sherbrooke / Frontenac,45.5367,-73.56081,,
6250,Marche Jean-Talon (Henri-Julien / Jean-Talon),45.53678525,-73.61488796,,
6249,Belanger / St-Denis,45.53696,-73.61199,,
6258,Parc Père-Marquette (Chambord / Rosemont),45.53702583,-73.59316617,,
6167,Marquette / St-Gregoire,45.53703,-73.58584,,
6910,Boyer / Beaubien,45.537041,-73.602026,,
7027,Terrasse Guindon / Fullum,45.53711414,-73.56913894,,
6150,Messier / du Mont-Royal,45.53711414,-73.5710031,,
6262,de la Roche /  de Bellechasse,45.53715923,-73.59747648,,
5006,Collège Édouard-Montpetit,45.53722604,-73.49506706,,
6236,Laurier / de Bordeaux,45.5372588,-73.57917041,,
6127,Henri-Julien / de Castelnau,45.537877,-73.618323,,
6134,Gascon / Rachel,45.537964,-73.562643,,
7029,Cartier / Masson,45.53805998,-73.58337676,,
6255,Boyer / St-Zotique,45.53848,-73.60556,,
6265,Parthenais / St-Joseph,45.53854352,-73.57613347,,
6149,Chapleau / du Mont-Royal,45.53867,-73.56936,,
6260,Dandurand / Papineau,45.53869977,-73.58622193,,
6322,St-Dominique / Gounod,45.53873795,-73.62802148,,
6103,Lesperance / de Rouen,45.538799,-73.552496,,
6197,de Bordeaux / Masson,45.5389844,-73.58244538,,
6253,Berri / Jean-Talon,45.53903178,-73.61431818,,
7035,Fullum / Gilford,45.53922374,-73.5738368,,
6002,Ste-Catherine / Dezery,45.53929156,-73.54103073,,
6328,Henri-Julien / Villeray,45.53948747,-73.6235556,,
6323,Guizot / St-Laurent,45.5396316,-73.63444805,,
5004,St-Charles / Charlotte,45.539824,-73.508752,,
6327,Faillon / St-Denis,45.53982886,-73.62023503,,
6162,Fullum / St-Joseph,45.5398326,-73.57555881,,
6268,Chambord / Beaubien,45.53993218,-73.5993433,,
7064,Clark / de Liège,45.53998385,-73.63813475,,
6254,Boyer / Belanger,45.54006,-73.60897,,
7061,Lajeunesse / de Castelnau,45.54039621,-73.61681789,,
6330,de Gaspe / Jarry,45.54078005,-73.6304006,,
6259,Dandurand / de Lorimier,45.540881,-73.584157,,
6393,Dezery / Ontario,45.54111009,-73.54754984,,
6421,Cartier / Rosemont,45.54124722,-73.59104455,,
7063,Henri-Julien / Jarry,45.54140623,-73.63007069,,
6386,Metro Prefontaine (Moreau / Hochelaga),45.54143508,-73.55431437,,
6389,Boyer / Jean-Talon,45.541484,-73.612441,,
6022,Angus (Molson / William-Tremblay),45.5417292,-73.56549382,,
6329,Gounod / St-Denis,45.54181644,-73.62611175,,
6904,Fabre / Beaubien,45.542055,-73.597793,,
6734,Lajeunesse / Villeray (place Tapeo),45.54211889,-73.6225471,,
6332,de Gaspe / de Liège,45.54248521,-73.63634169,,
6264,Chabot / de Bellechasse,45.54256975,-73.59214425,,
7018,Joliette / Ste-Catherine,45.54286797,-73.53822447,,
6336,Faillon / St-Hubert,45.54297176,-73.61793905,,
6276,Chambord / Belanger,45.54299336,-73.60637203,,
6331,Guizot / St-Denis,45.54334747,-73.63235325,,
6270,Fabre / St-Zotique,45.54345173,-73.60101029,,
7065,de Lanaudière / Belanger,45.54365085,-73.60565051,,
7020,St-Germain / Hochelaga,45.54369875,-73.55367333,,
7039,du Mont-Royal / Augustin-Frigon,45.54376315,-73.56772006,,
7002,Tolhurst / Fleury,45.54410128,-73.66738558,,
6391,Aylwin / Ontario,45.54431115,-73.54554892,,
6905,Parc Rosemont (Dandurand / d'Iberville),45.544377,-73.581018,,
6916,Parc du Pelican (2e avenue / St-Joseph),45.544513,-73.571564,,
6346,Congres,45.54459353,-73.53779465,,
6261,Louis Hemon / Rosemont,45.54459856,-73.58822286,,
6335,du Rosaire / St-Hubert,45.54467,-73.621581,,
6267,de Bordeaux / Beaubien,45.54475,-73.5949,,
6275,Chambord / Jean-Talon,45.54484558,-73.61053616,,
6340,de la Roche / Everett,45.544867,-73.614841,,
6372,1ère avenue / Masson,45.5451997,-73.57645065,,
6384,Darling / Sherbrooke,45.5454589,-73.55666935,,
6324,de Liège / Lajeunesse,45.54560355,-73.63474041,,
6381,Omer-Lavallee / du Midway,45.54577595,-73.56217459,,
6272,Chabot / St-Zotique,45.54609382,-73.59927893,,
6410,Metro Cremazie (Cremazie / Lajeunesse),45.54640752,-73.63842845,,
6266,Louis-Hebert / Belllechasse,45.54680011,-73.58889341,,
6387,Metro Joliette  (Joliette / Hochelaga),45.54690718,-73.55155706,,
6273,Cartier / Belanger,45.546939,-73.602616,,
6371,4e avenue / Masson,45.546978,-73.575515,,
6394,Valois / Ontario,45.54716077,-73.54377329,,
6333,Leman / de Chateaubriand,45.547218,-73.631103,,
6373,7e avenue / St-Joseph,45.54722665,-73.56986985,,
6367,3e avenue / Dandurand,45.547362,-73.579221,,
6923,Marquette / Jean-Talon,45.54740778,-73.60766888,,
7006,Clark / Fleury,45.54764848,-73.6655657,,
6362,1ère avenue / Rosemont,45.547997,-73.58523,,
6733,Rousselot / Villeray,45.54885883,-73.61661136,,
6185,des Érables / Belanger,45.54912086,-73.6008735,,
6277,Elsdale / Louis-Hebert,45.54918032,-73.59385818,,
7019,Jeanne d'Arc / Ontario,45.54960453,-73.54193866,,
6361,Molson / Beaubien,45.5496859,-73.59115452,,
7043,Ernest-Gendreau / du Mont-Royal,45.54971373,-73.56384829,,
6924,de Bordeaux / Jean-Talon,45.54975479,-73.60556602,,
7004,Émile-Journault / de Chateaubriand,45.54983321,-73.64063255,,
6364,de Chambly / Rachel,45.54991069,-73.55826259,,
6700,de la Salle / Ste-Catherine,45.54992009,-73.53416428,,
6917,Basile-Routhier / Chabanel,45.54998583,-73.64796638,,
6278,Louis-Hebert / St-Zotique,45.55001,-73.59576,,
6368,10e avenue / Masson,45.55031641,-73.57335806,,
6082,6e avenue / Rosemont,45.55052513,-73.58298182,,
6388,d'Orleans / Hochelaga,45.550668,-73.549502,,
6343,Marquette / Villeray,45.55068362,-73.61529306,,
6210,Metro Sauve (Berri / Sauve),45.55069207,-73.65636706,,
6189,Chabot / Everett,45.55072306,-73.60957056,,
6918,9e avenue / Dandurand,45.550769,-73.57711,,
7008,Rousselot / Jarry,45.55076908,-73.62091094,,
6380,Parc J.-Arthur-Champagne (de Chambly / du Mont-Royal),45.551584,-73.561916,,
6279,Louis-Hebert / Belanger,45.55158519,-73.59916493,,
6358,1ère  avenue /St-Zotique,45.55193736,-73.59392792,,
6737,Jacques-Casault / Christophe-Colomb,45.552123,-73.630103,,
6398,Desjardins / de Rouen,45.55223976,-73.54412735,,
6919,10e Avenue / Rosemont,45.552649,-73.581185,,
6376,16e avenue / St-Joseph,45.5529231,-73.56575198,,
7017,Bennett / Ste-Catherine,45.55302674,-73.53238195,,
6925,Louis-Hebert / Jean-Talon,45.55313943,-73.60271081,,
6397,Marche Maisonneuve,45.5531939,-73.53981435,,
6360,8e avenue / Beaubien,45.553215,-73.58752,,
6374,Laurier / 15e avenue,45.55321516,-73.56949568,,
6412,Complexe sportif Claude-Robillard (Émile-Journault),45.553262,-73.638615,,
6417,Desjardins / Hochelaga,45.55349065,-73.54829013,,
6383,Bourbonnière / du Mont-Royal,45.55357074,-73.56049418,,
6422,Fleury / Lajeunesse,45.5536,-73.6616,,
7041,15e avenue / Masson,45.55391377,-73.57141882,,
6396,Metro Pie-IX (Pierre-de-Coubertin / Pie-IX),45.55421376,-73.55155975,,
7046,15e avenue / Dandurand,45.55479651,-73.57432097,,
6345,Louis-Hemon / Villeray,45.55496126,-73.61073732,,
6703,Jardin Botanique (Pie-IX / Sherbrooke),45.55520524,-73.55582308,,
7003,St-Charles / Sauve,45.55606493,-73.65350246,,
6355,Ontario / Sicard,45.55626187,-73.5374406,,
6736,Basile-Routhier / Gouin,45.55656216,-73.67011473,,
6357,12e avenue / St-Zotique,45.556905,-73.58925,,
6370,d'Orleans / Masson,45.557192,-73.569847,,
6006,18e avenue / Rosemont,45.55789546,-73.5765291,,
6076,Ville-Marie / Ste-Catherine,45.55792115,-73.52914721,,
6033,16e avenue / Beaubien,45.55846015,-73.58342975,,
6710,de la Roche / Fleury,45.55899974,-73.65841359,,
6395,Pierre-de-Coubertin / Aird,45.55901792,-73.54848057,,
6347,Metro St-Michel (Shaughnessy / St-Michel),45.559199,-73.599658,,
6720,Ontario / Viau,45.5594818,-73.535496,,
6930,Paul Boutet / des Regrattiers,45.55984236,-73.61544728,,
6726,Hamel / Sauve,45.560742,-73.65041,,
6735,François-Perrault / L.-O.-David,45.56129966,-73.60143006,,
6704,19e avenue / St-Zotique,45.561594,-73.585643,,
7023,CHSLD St-Michel (Jarry / 8e avenue),45.56169027,-73.61051202,,
6701,de Marseille / Viau,45.5639212,-73.5489124,,
6716,Francis / Fleury,45.563947,-73.655573,,
6731,28e avenue / Rosemont,45.564353,-73.571244,,
6723,26e avenue / Beaubien,45.564944,-73.577639,,
7005,Marquette / Fleury,45.56735206,-73.65378745,,
6713,30e avenue / St-Zotique,45.56822507,-73.57943594,,
6702,Chauveau / de l'Assomption,45.569789,-73.548081,,
6730,35e avenue / Beaubien,45.570081,-73.573047,,
6722,Pierre-de-Coubertin / Louis-Veuillot,45.57278891,-73.54031324,,
6753,St-Zotique / 39e avenue,45.57354143,-73.57492275,,
7009,CHSLD Benjamin-Victor-Rousselot (Dickson / Sherbrooke),45.57379782,-73.55034471,,
6226,Hôpital Maisonneuve-Rosemont (Rosemont / Chatelain),45.575707,-73.561562,,
7075,CHSLD Éloria-Lepage (de la Pepinière / de Marseille),45.57694445,-73.54045272,,
6721,Metro Cadillac (Sherbrooke / de Cadillac),45.57713595,-73.54628921,,
7044,Hôpital Santa Cabrini (St-Zotique / Jeanne-Jugan),45.57932497,-73.57050419,,
6739,de Repentigny / Sherbrooke,45.58077,-73.544766,,
7016,Metro Langelier (Sherbrooke / Langelier),45.58275716,-73.54244292,,
